{
  "type": "FeatureCollection",
  "properties": {
    "name": "Linea 5 - El Molino"
  },
  "features": [
    {
      "type": "Feature",
      "geometry": {
        "type": "Point",
        "coordinates": [-65.17696426434854, -26.801058713557314]
      },
      "properties": {
        "name": "Seoc III y Juan Warnes"
      }
    },
    {
      "type": "Feature",
      "geometry": {
        "type": "Point",
        "coordinates": [-65.17801644939098, -26.800804528928392]
      },
      "properties": {
        "name": "Seoc III y Calle SN"
      }
    },
    {
      "type": "Feature",
      "geometry": {
        "type": "Point",
        "coordinates": [-65.17840078565365, -26.801548128846868]
      },
      "properties": {
        "name": "Cnel Murga y J I Warnes"
      }
    },
    {
      "type": "Feature",
      "geometry": {
        "type": "Point",
        "coordinates": [-65.18026260482544, -26.801396899114476]
      },
      "properties": {
        "name": "J I Warnes y Salas y Valdez"
      }
    },
    {
      "type": "Feature",
      "geometry": {
        "type": "Point",
        "coordinates": [-65.18169289944557, -26.801090458871652]
      },
      "properties": {
        "name": "JI Warnes y Salas y Valdez"
      }
    },
    {
      "type": "Feature",
      "geometry": {
        "type": "Point",
        "coordinates": [-65.18345095324439, -26.800742302200423]
      },
      "properties": {
        "name": "J I Warnes y Juan Posse"
      }
    },
    {
      "type": "Feature",
      "geometry": {
        "type": "Point",
        "coordinates": [-65.185041, -26.800382]
      },
      "properties": {
        "name": "J I Warnes y L  Nougues"
      }
    },
    {
      "type": "Feature",
      "geometry": {
        "type": "Point",
        "coordinates": [-65.18662801558519, -26.801440560953264]
      },
      "properties": {
        "name": "Benjamin Villafaï¿½e y Raul R Aragon"
      }
    },
    {
      "type": "Feature",
      "geometry": {
        "type": "Point",
        "coordinates": [-65.18574167186173, -26.803182577060554]
      },
      "properties": {
        "name": "Eduardo Wilde y L F Nougues"
      }
    },
    {
      "type": "Feature",
      "geometry": {
        "type": "Point",
        "coordinates": [-65.18581101558519, -26.80443174757241]
      },
      "properties": {
        "name": "L F Nougues y Calle SN"
      }
    },
    {
      "type": "Feature",
      "geometry": {
        "type": "Point",
        "coordinates": [-65.18623822993156, -26.806106102092887]
      },
      "properties": {
        "name": "L F Nougues y Nougues"
      }
    },
    {
      "type": "Feature",
      "geometry": {
        "type": "Point",
        "coordinates": [-65.18649158784966, -26.807326469843776]
      },
      "properties": {
        "name": "L F Nougues y San Salvador"
      }
    },
    {
      "type": "Feature",
      "geometry": {
        "type": "Point",
        "coordinates": [-65.18682513236004, -26.808731091925242]
      },
      "properties": {
        "name": "L F Nougues y Nicaragua"
      }
    },
    {
      "type": "Feature",
      "geometry": {
        "type": "Point",
        "coordinates": [-65.1881640082116, -26.80860949846287]
      },
      "properties": {
        "name": "Nicaragua y Benjamin Villafane"
      }
    },
    {
      "type": "Feature",
      "geometry": {
        "type": "Point",
        "coordinates": [-65.18963442274334, -26.808278260438392]
      },
      "properties": {
        "name": "Nicaragua y C Gutierrez"
      }
    },
    {
      "type": "Feature",
      "geometry": {
        "type": "Point",
        "coordinates": [-65.19203030584617, -26.80483165041425]
      },
      "properties": {
        "name": "Mexico y Balcarce"
      }
    },
    {
      "type": "Feature",
      "geometry": {
        "type": "Point",
        "coordinates": [-65.19358528095798, -26.804533945606693]
      },
      "properties": {
        "name": "Mexico y Monteagudo"
      }
    },
    {
      "type": "Feature",
      "geometry": {
        "type": "Point",
        "coordinates": [-65.1950462998697, -26.804286556510064]
      },
      "properties": {
        "name": "Mexico y Rivadavia"
      }
    },
    {
      "type": "Feature",
      "geometry": {
        "type": "Point",
        "coordinates": [-65.19661067060153, -26.804005622474744]
      },
      "properties": {
        "name": "Mexico y Laprida"
      }
    },
    {
      "type": "Feature",
      "geometry": {
        "type": "Point",
        "coordinates": [-65.19854616832376, -26.80487777362439]
      },
      "properties": {
        "name": "25 de Mayo y Venezuela"
      }
    },
    {
      "type": "Feature",
      "geometry": {
        "type": "Point",
        "coordinates": [-65.19876696539403, -26.80592183036236]
      },
      "properties": {
        "name": "25 de Mayo y Colombia"
      }
    },
    {
      "type": "Feature",
      "geometry": {
        "type": "Point",
        "coordinates": [-65.19905353180437, -26.807083279776048]
      },
      "properties": {
        "name": "25 de Mayo y Ecuador"
      }
    },
    {
      "type": "Feature",
      "geometry": {
        "type": "Point",
        "coordinates": [-65.19933070259471, -26.80817763097348]
      },
      "properties": {
        "name": "25 de Mayo y Brasil"
      }
    },
    {
      "type": "Feature",
      "geometry": {
        "type": "Point",
        "coordinates": [-65.19954210404495, -26.80903717144296]
      },
      "properties": {
        "name": "25 de Mayo y Paraguay"
      }
    },
    {
      "type": "Feature",
      "geometry": {
        "type": "Point",
        "coordinates": [-65.19988504417535, -26.810399844199196]
      },
      "properties": {
        "name": "25 de Mayo y Peru"
      }
    },
    {
      "type": "Feature",
      "geometry": {
        "type": "Point",
        "coordinates": [-65.20016221496566, -26.811653488669922]
      },
      "properties": {
        "name": "25 de Mayo y Bolivia"
      }
    },
    {
      "type": "Feature",
      "geometry": {
        "type": "Point",
        "coordinates": [-65.20048636385603, -26.813058057145145]
      },
      "properties": {
        "name": "25 de Mayo y Chile"
      }
    },
    {
      "type": "Feature",
      "geometry": {
        "type": "Point",
        "coordinates": [-65.20078232588638, -26.814470993545132]
      },
      "properties": {
        "name": "25 de Mayo y Uruguay"
      }
    },
    {
      "type": "Feature",
      "geometry": {
        "type": "Point",
        "coordinates": [-65.20103130981667, -26.815372412610134]
      },
      "properties": {
        "name": "25 de Mayo e Italia"
      }
    },
    {
      "type": "Feature",
      "geometry": {
        "type": "Point",
        "coordinates": [-65.20168993569894, -26.818314493958447]
      },
      "properties": {
        "name": "25 de Mayo y Av Sarmiento"
      }
    },
    {
      "type": "Feature",
      "geometry": {
        "type": "Point",
        "coordinates": [-65.19936168118723, -26.819171885786886]
      },
      "properties": {
        "name": "Av Sarmiento y Virgen de la Merced"
      }
    },
    {
      "type": "Feature",
      "geometry": {
        "type": "Point",
        "coordinates": [-65.19928378419611, -26.821033407877078]
      },
      "properties": {
        "name": "Virgen de la Merced y Santa Fe"
      }
    },
    {
      "type": "Feature",
      "geometry": {
        "type": "Point",
        "coordinates": [-65.19995023623105, -26.823852667339658]
      },
      "properties": {
        "name": "Virgen de la Merced y Corrientes"
      }
    },
    {
      "type": "Feature",
      "geometry": {
        "type": "Point",
        "coordinates": [-65.20073786136325, -26.826841778155845]
      },
      "properties": {
        "name": "Virgen de la Merced y Cordoba"
      }
    },
    {
      "type": "Feature",
      "geometry": {
        "type": "Point",
        "coordinates": [-65.20310073675986, -26.827081212561705]
      },
      "properties": {
        "name": "Cordoba y 25 de Mayo"
      }
    },
    {
      "type": "Feature",
      "geometry": {
        "type": "Point",
        "coordinates": [-65.20453117827076, -26.824507785506597]
      },
      "properties": {
        "name": "Munecas y Santiago"
      }
    },
    {
      "type": "Feature",
      "geometry": {
        "type": "Point",
        "coordinates": [-65.20380984882779, -26.821859729572996]
      },
      "properties": {
        "name": "Munecas y Marcos Paz"
      }
    },
    {
      "type": "Feature",
      "geometry": {
        "type": "Point",
        "coordinates": [-65.20342716736387, -26.819046088405685]
      },
      "properties": {
        "name": "Munecas y Av Sarmiento"
      }
    },
    {
      "type": "Feature",
      "geometry": {
        "type": "Point",
        "coordinates": [-65.20283054549314, -26.81651798617564]
      },
      "properties": {
        "name": "Munecas y Espana"
      }
    },
    {
      "type": "Feature",
      "geometry": {
        "type": "Point",
        "coordinates": [-65.20233727544255, -26.814442636230392]
      },
      "properties": {
        "name": "Munecas y Uruguay"
      }
    },
    {
      "type": "Feature",
      "geometry": {
        "type": "Point",
        "coordinates": [-65.20201312655216, -26.813063241206333]
      },
      "properties": {
        "name": "Munecas y Chile"
      }
    },
    {
      "type": "Feature",
      "geometry": {
        "type": "Point",
        "coordinates": [-65.20173595576183, -26.81168382939752]
      },
      "properties": {
        "name": "Munecas y Bolivia"
      }
    },
    {
      "type": "Feature",
      "geometry": {
        "type": "Point",
        "coordinates": [-65.20142120249143, -26.810363100235534]
      },
      "properties": {
        "name": "Munecas y Peru"
      }
    },
    {
      "type": "Feature",
      "geometry": {
        "type": "Point",
        "coordinates": [-65.20106886674101, -26.809075898597044]
      },
      "properties": {
        "name": "Munecas y Paraguay"
      }
    },
    {
      "type": "Feature",
      "geometry": {
        "type": "Point",
        "coordinates": [-65.20063197041047, -26.80708427117382]
      },
      "properties": {
        "name": "Munecas y Ecuador"
      }
    },
    {
      "type": "Feature",
      "geometry": {
        "type": "Point",
        "coordinates": [-65.20036419524014, -26.805973137514428]
      },
      "properties": {
        "name": "Munecas y Colombia"
      }
    },
    {
      "type": "Feature",
      "geometry": {
        "type": "Point",
        "coordinates": [-65.20010581568984, -26.80486199296736]
      },
      "properties": {
        "name": "Munecas y Venezuela"
      }
    },
    {
      "type": "Feature",
      "geometry": {
        "type": "Point",
        "coordinates": [-65.19978166679942, -26.8035747288797]
      },
      "properties": {
        "name": "Munecas y Mexico"
      }
    },
    {
      "type": "Feature",
      "geometry": {
        "type": "Point",
        "coordinates": [-65.19946691352905, -26.802136497975308]
      },
      "properties": {
        "name": "Munecas y Jose M Estrada"
      }
    },
    {
      "type": "Feature",
      "geometry": {
        "type": "Point",
        "coordinates": [-65.19918034711868, -26.80077372591727]
      },
      "properties": {
        "name": "Munecas y Don Orione"
      }
    },
    {
      "type": "Feature",
      "geometry": {
        "type": "Point",
        "coordinates": [-65.1987904288882, -26.798991614673735]
      },
      "properties": {
        "name": "Munecas y I La Catolica"
      }
    },
    {
      "type": "Feature",
      "geometry": {
        "type": "Point",
        "coordinates": [-65.19980045803939, -26.796974650290338]
      },
      "properties": {
        "name": "Emilio Castelar y Maipu"
      }
    },
    {
      "type": "Feature",
      "geometry": {
        "type": "Point",
        "coordinates": [-65.20064136603037, -26.795670523252053]
      },
      "properties": {
        "name": "Junin y Madrid"
      }
    },
    {
      "type": "Feature",
      "geometry": {
        "type": "Point",
        "coordinates": [-65.19950919381904, -26.794391541660318]
      },
      "properties": {
        "name": "Av Fransisco de Aguirre y Maipu"
      }
    },
    {
      "type": "Feature",
      "geometry": {
        "type": "Point",
        "coordinates": [-65.19639454578532, -26.794924102960273]
      },
      "properties": {
        "name": "Av Francisco de Aguirre y 25 de Mayo"
      }
    },
    {
      "type": "Feature",
      "geometry": {
        "type": "Point",
        "coordinates": [-65.19326110651163, -26.795506982147554]
      },
      "properties": {
        "name": "Av Francisco de Aguirre y Rivadavia"
      }
    },
    {
      "type": "Feature",
      "geometry": {
        "type": "Point",
        "coordinates": [-65.19194102190006, -26.795787937232923]
      },
      "properties": {
        "name": "Av Francisco de Aguirre y Monteagudo"
      }
    },
    {
      "type": "Feature",
      "geometry": {
        "type": "Point",
        "coordinates": [-65.19031088182811, -26.796110825053823]
      },
      "properties": {
        "name": "Av Francisco de Aguirre y Balcarce"
      }
    },
    {
      "type": "Feature",
      "geometry": {
        "type": "Point",
        "coordinates": [-65.19041893145823, -26.797414947030532]
      },
      "properties": {
        "name": "Balcarce y Madrid"
      }
    },
    {
      "type": "Feature",
      "geometry": {
        "type": "Point",
        "coordinates": [-65.19076187158862, -26.79878614593013]
      },
      "properties": {
        "name": "Balcarce y Emilio Castelar"
      }
    },
    {
      "type": "Feature",
      "geometry": {
        "type": "Point",
        "coordinates": [-65.19115178981905, -26.800601805817546]
      },
      "properties": {
        "name": "Balcarce y I La Catolica"
      }
    },
    {
      "type": "Feature",
      "geometry": {
        "type": "Point",
        "coordinates": [-65.19153231242949, -26.801972966192867]
      },
      "properties": {
        "name": "Balcarce y Delfin Gallo"
      }
    },
    {
      "type": "Feature",
      "geometry": {
        "type": "Point",
        "coordinates": [-65.19182827445981, -26.803310565386997]
      },
      "properties": {
        "name": "Balcarce y Jose M Estrada"
      }
    },
    {
      "type": "Feature",
      "geometry": {
        "type": "Point",
        "coordinates": [-65.19213363211017, -26.804597832473192]
      },
      "properties": {
        "name": "Balcarce y Mexico"
      }
    },
    {
      "type": "Feature",
      "geometry": {
        "type": "Point",
        "coordinates": [-65.19248042335022, -26.805982473999187]
      },
      "properties": {
        "name": "Balcarce y Venezuela"
      }
    },
    {
      "type": "Feature",
      "geometry": {
        "type": "Point",
        "coordinates": [-65.1910646642496, -26.806459367756805]
      },
      "properties": {
        "name": "Venezuela y Av Juan B Justo"
      }
    },
    {
      "type": "Feature",
      "geometry": {
        "type": "Point",
        "coordinates": [-65.19087934239482, -26.806731072546352]
      },
      "properties": {
        "name": "San Salvador y Av Juan B Justo"
      }
    },
    {
      "type": "Feature",
      "geometry": {
        "type": "Point",
        "coordinates": [-65.18959804963015, -26.806873736506304]
      },
      "properties": {
        "name": "San Salvador y C Gutierrez"
      }
    },
    {
      "type": "Feature",
      "geometry": {
        "type": "Point",
        "coordinates": [-65.18815864234965, -26.80715120927955]
      },
      "properties": {
        "name": "San Salvador y Benjamin Villafane"
      }
    },
    {
      "type": "Feature",
      "geometry": {
        "type": "Point",
        "coordinates": [-65.18668904820913, -26.80741952416425]
      },
      "properties": {
        "name": "San Salvador y L F Nougues"
      }
    },
    {
      "type": "Feature",
      "geometry": {
        "type": "Point",
        "coordinates": [-65.18632207153009, -26.80689218955817]
      },
      "properties": {
        "name": "L F Nougues y C 39"
      }
    },
    {
      "type": "Feature",
      "geometry": {
        "type": "Point",
        "coordinates": [-65.18602730218998, -26.805651368742737]
      },
      "properties": {
        "name": "L F Nougues y C 41"
      }
    },
    {
      "type": "Feature",
      "geometry": {
        "type": "Point",
        "coordinates": [-65.18582348905002, -26.80463896513734]
      },
      "properties": {
        "name": "L F Nougues y Calle SN"
      }
    },
    {
      "type": "Feature",
      "geometry": {
        "type": "Point",
        "coordinates": [-65.18543536788982, -26.803372589278375]
      },
      "properties": {
        "name": "L F Nougues y Eduardo Wilde"
      }
    },
    {
      "type": "Feature",
      "geometry": {
        "type": "Point",
        "coordinates": [-65.186592, -26.802975999999997]
      },
      "properties": {
        "name": "Eduardo Wilde y Benjamin Villafane"
      }
    },
    {
      "type": "Feature",
      "geometry": {
        "type": "Point",
        "coordinates": [-65.18667890656998, -26.801654626549617]
      },
      "properties": {
        "name": "Benjamin Villafane y Raul R Aragon"
      }
    },
    {
      "type": "Feature",
      "geometry": {
        "type": "Point",
        "coordinates": [-65.18521599999997, -26.800427]
      },
      "properties": {
        "name": "JI Warnes y L F Nougues"
      }
    },
    {
      "type": "Feature",
      "geometry": {
        "type": "Point",
        "coordinates": [-65.18391518245078, -26.800739784433034]
      },
      "properties": {
        "name": "JI Warnes y Juan Posse"
      }
    },
    {
      "type": "Feature",
      "geometry": {
        "type": "Point",
        "coordinates": [-65.18164929195054, -26.801200943796168]
      },
      "properties": {
        "name": "JI Warnes y Salas y Valdez"
      }
    },
    {
      "type": "Feature",
      "geometry": {
        "type": "Point",
        "coordinates": [-65.179143, -26.801729999999996]
      },
      "properties": {
        "name": "JI Warnes y Jose Hernandez"
      }
    }
  ]
}
